[{
  "label": "Corse",
  "latitude": 41.92723,
  "longitude": 8.73462,
  "images": [{
    "path": "corse.jpg",
    "description": "Superbe plage",
    "source": "Office du Tourisme de Corse"
  }, {
    "path": "corse2.jpeg"
  }]
}, {
  "label": "Côte d'Azur",
  "latitude": 43.70313,
  "longitude": 7.26608,
  "images": [{
    "path": "azur.jpg"
  }, {
    "path": "azur1.jpg"
  }]
}, {
  "label": "Jura",
  "latitude": 46.83333,
  "longitude": 5.83333,
  "images": [{
    "path": "jura.jpg"
  }]
}, {
  "label": "Rocamadour",
  "latitude": 44.7991877,
  "longitude": 1.6183521,
  "images": [{
    "path": "rocamadour.jpg"
  }]
}, {
  "label": "Dune du Pilat",
  "latitude": 44.5891614,
  "longitude": -1.2141047,
  "images": [{
    "path": "dune_pilat.jpg"
  }]
}, {
  "label": "Chateau de Chantilly",
  "latitude": 49.19461,
  "longitude": 2.47124,
  "images": [{
    "path": "chantilly.jpg"
  }]
}, {
  "label": "Lac d'Annecy",
  "latitude": 45.8493061,
  "longitude": 6.1711755,
  "images": [{
    "path": "lac_annecy.jpg"
  }, {
    "path": "lac_annecy1.jpg"
  }, {
    "path": "lac_annecy2.jpg"
  }]
}, {
  "label": "Nîmes",
  "latitude": 43.83333,
  "longitude": 4.35,
  "images": [{
    "path": "nimes.jpg"
  }, {
    "path": "nimes1.jpg"
  }, {
    "path": "nimes2.jpg"
  }]
}, {
  "label": "Gouffre de la Fage",
  "latitude": 44.43291,
  "longitude": 3.59337,
  "images": [{
    "path": "gouffre_fage_.jpg",
    "source": "Teatimeinwondeland"
  }, {
    "path": "gouffre_fage_teatimeiwoderland.jpg",
    "source": "Teatimeinwondeland"
  }]
}, {
  "label": "Gorges du Verdon",
  "latitude": 43.740335,
  "longitude": 6.3799984,
  "images": [{
    "path": "gorge_verdon.jpg"
  }, {
    "path": "gorge_verdon1.jpg"
  }]
}, {
  "label": "Roche de Solutré",
  "latitude": 46.2987205,
  "longitude": 4.7181403,
  "images": [{
    "path": "roche_solutre.jpg"
  }, {
    "path": "roche_solutre1.jpg"
  }]
}, {
  "label": "Lac de Monteynard",
  "latitude": 44.9656674,
  "longitude": 5.7017388,
  "images": [{
    "path": "lac_monteynard.jpg"
  }]
}, {
  "label": "Marais Poitevin",
  "latitude": 46.33333,
  "longitude": -1,
  "images": [{
  "path": "poitevin.jpg",
  "source": "viinz"
  }, {
    "path": "poitevin1.jpg"
  }]
}, {
  "label": "Plateau des milles étangs",
  "latitude": 46.8656,
  "longitude": 4.18988,
  "images": [{
  "path": "milles_etang.jpg",
  "source": "parcballonsvosges"
  }]
}, {
  "label": "Gorges de la Dordogne",
  "latitude": 45.1429198,
  "longitude": 0.6321258,
  "images": [{
    "path": "dordogne.jpg"
  }, {
    "path": "dordogne1.jpg"
  }]
}, {
  "label": "Lac de Gaube",
  "latitude": 42.8314346,
  "longitude": -0.1396429,
  "images": [{
  "path": "lac_gaube.jpg"
  }]
}, {
  "label": "Strasbourg",
  "latitude": 48.584614,
  "longitude": 7.7507127,
  "images": [{
    "path": "strasbourg.jpg"
  }, {
    "path": "strasbourg1.jpg"
  }]
}, {
  "label": "Colmar",
  "latitude": 48.08333,
  "longitude": 7.36667,
  "images": [{
    "path": "colmar.jpg"
  }, {
    "path": "colmar1.jpg"
  }]
}, {
  "label": "Annecy",
  "latitude": 45.9,
  "longitude": 6.11667,
  "images": [{
    "path": "annecy.jpg"
  }]
}, {
  "label": "Aigues-Morte",
  "latitude": 43.57178083878112,
  "longitude": 4.202356647949204,
  "images": [{
    "path": "aigues_morte.jpg"
  }]
}, {
  "label": "Orgues de Bort",
  "latitude": 45.4,
  "longitude": 2.5,
  "images": [{
    "path": "bort_orgues_siteofficiel.jpg",
    "source": "siteofficiel"
  }, {
    "path": "bort_orgues_siteofficiel1.jpg",
    "source": "siteofficiel"
  }]
}, {
  "label": "Canyon de Vacca",
  "latitude": 41.724223,
  "longitude": 9.2712855,
  "images": [{
    "path": "canyon_vacca_.JPG",
    "source": "expedicionsegan"
  }, {
    "path": "canyon_vacca_aqacanyon.jpg",
    "source": "aqacanyon"
  }]
}, {
  "label": "Calanques de Marseille",
  "latitude": 43.2961743,
  "longitude": 5.3699525,
  "images": [{
    "path": "calanque_marseille.jpg"
  }, {
    "path": "calanque_marseille1.jpg"
  }, {
    "path": "calanque_marseille2.jpg"
  }]
}, {
  "label": "Donon",
  "latitude": 48.5126166,
  "longitude": 7.1644661,
  "images": [{
  "path": "donon_wikipedia.jpg",
  "source": "wikipedia"
  }]
}, {
  "label": "Lac Capitello",
  "latitude": 42.216131,
  "longitude": 9.0579488,
  "images": [{
    "path": "lac_capitello_.JPG",
    "source": "Voyage Michelin"
  }, {
    "path": "lac_capitello_antoineontherock.jpg",
    "source": "antoineontherock"
  }]
}, {
  "label": "Ocres de Rustrel",
  "latitude": 43.92571,
  "longitude": 5.48554,
  "images": [{
    "path": "ocre_rustrel.jpg"
  }, {
    "path": "ocre_rustrel1.jpg"
  }]
}, {
  "label": "Vosges",
  "latitude": 48.163786,
  "longitude": 6.3820712,
  "images": [{
    "path": "vosges.jpg"
  }, {
    "path": "vosges1.jpg"
  }, {
    "path": "vosges2.jpg"
  }]
}, {
  "label": "Mont Blanc",
  "latitude": 46.0926274,
  "longitude": 5.0775307,
  "images": [{
    "path": "montblanc.jpg"
  }, {
    "path": "montblanc1.jpg"
  }]
}]