[
  {
    "label": "Corse",
    "latitude": 41.92723,
    "longitude": 8.73462,
    "description": "Eaux turquoises, plage de sable fin, <b>les plages de Corse n'ont rien à envier aux destinations les plus paradisiaques</b> du monde. L'intérieur des terres est particulièrement authentiques, avec ses villages et ses montagnes. Pour réduire votre impact, vous pouvez vous y rendre en ferry voir même en voilier pour les plus aventuriers !",
    "images": [
      {
        "path": "corse.jpg",
        "description": "Superbe plage",
        "source": "Office du Tourisme de Corse"
      },
      {
        "path": "corse2.jpeg"
      }
    ],
    "links": [
      "https://www.visit-corsica.com/"
    ]
  },
  {
    "label": "Côte d'Azur",
    "latitude": 43.70313,
    "longitude": 7.26608,
    "images": [
      {
        "path": "azur.jpg"
      },
      {
        "path": "azur1.jpg"
      }
    ],
    "description": "Une des destinations préférées des français, qui regorge de site naturel incroyable, entre mer et montagne. ",
    "links": [
      "https://cotedazurfrance.fr/"
    ]
  },
  {
    "label": "Jura",
    "latitude": 46.83333,
    "longitude": 5.83333,
    "images": [
      {
        "path": "jura.jpg"
      }
    ],
    "description": "",
    "links": [
      ""
    ]
  },
  {
    "label": "Rocamadour",
    "latitude": 44.7991877,
    "longitude": 1.6183521,
    "images": [
      {
        "path": "rocamadour.jpg"
      }
    ],
    "description": "Ce plus beau village de Franche, niché sur une falaise abrupte, abrite une magnifique cité médiévale aux rues tortueuses. C'est une destination les plus visitées de France.",
    "links": [
      "https://www.vallee-dordogne.com/"
    ]
  },
  {
    "label": "Dune du Pilat",
    "latitude": 44.5891614,
    "longitude": -1.2141047,
    "images": [
      {
        "path": "dune_pilat.jpg"
      }
    ],
    "description": "La plus haute dune d'Europe se trouve en France, à quelques km d'Arcachon, avec une hauteur de 106m. De quoi faire rougir le désert du Sahara !",
    "links": [
      "https://www.ladunedupilat.com/"
    ]
  },
  {
    "label": "Château de Chantilly",
    "latitude": 49.19461,
    "longitude": 2.47124,
    "images": [
      {
        "path": "chantilly.jpg"
      }
    ],
    "description": "Un des joyaux du patrimoine français, qui abrite les trésors d'Henri d'Orléans. On pourrait presque imaginer l'impératrice Sissi se baladant dans ce chateau historique.",
    "links": [
      "https://domainedechantilly.com/fr/"
    ]
  },
  {
    "label": "Lac d'Annecy",
    "latitude": 45.8493061,
    "longitude": 6.1711755,
    "images": [
      {
        "path": "lac_annecy.jpg"
      },
      {
        "path": "lac_annecy1.jpg"
      },
      {
        "path": "lac_annecy2.jpg"
      }
    ],
    "description": "À côté de la cité médiévale d'Annecy, le lac d'Annecy est réputé pour la propreté de ses eaux. On peut y pratiquer de nombreux sports aquatiques et aériens.",
    "links": [
      "https://www.lac-annecy.com/"
    ]
  },
  {
    "label": "Nîmes",
    "latitude": 43.83333,
    "longitude": 4.35,
    "images": [
      {
        "path": "nimes.jpg"
      },
      {
        "path": "nimes1.jpg"
      },
      {
        "path": "nimes2.jpg"
      }
    ],
    "description": "Avec ses arènes du 1er siècle après JC et ses nombreux bâtiments de l'époque romaine, on ne peut que penser à Rome et l'Italie.",
    "links": [
      "https://www.nimes-tourisme.com"
    ]
  },
  {
    "label": "Gouffre de la Fage",
    "latitude": 44.43291,
    "longitude": 3.59337,
    "images": [
      {
        "path": "gouffre_fage_.jpg",
        "source": "Teatimeinwondeland"
      },
      {
        "path": "gouffre_fage_teatimeiwoderland.jpg",
        "source": "Teatimeinwondeland"
      }
    ],
    "description": "On se croirait dans un paysage tropical, presque hostile, dans le grouffre de la Fage. D'une longueur (connue) de 705m, il abrite de nombreuses colonies de chauves-souris.",
    "links": [
      "https://www.gouffre-de-la-fage.com/"
    ]
  },
  {
    "label": "Gorges du Verdon",
    "latitude": 43.740335,
    "longitude": 6.3799984,
    "images": [
      {
        "path": "gorge_verdon.jpg"
      },
      {
        "path": "gorge_verdon1.jpg"
      }
    ],
    "description": "Des paysages à couper le souffle, des eaux émeraudes qui ont creusés les falaises depuis des millénaires, vous vous trouvez bien dans les gorges du Verdon à moins de 150km de Nice.",
    "links": [
      "https://www.lesgorgesduverdon.fr/"
    ]
  },
  {
    "label": "Roche de Solutré",
    "latitude": 46.2987205,
    "longitude": 4.7181403,
    "images": [
      {
        "path": "roche_solutre.jpg"
      },
      {
        "path": "roche_solutre1.jpg"
      }
    ],
    "description": "Une roche surplombant les vignes, aussi célèbre pour son originalité que pour les visites régulières de François Mitterand, véritable passionné de cet endroit.",
    "links": [
      "http://rochedesolutre.com/en/"
    ]
  },
  {
    "label": "Lac de Monteynard",
    "latitude": 44.9656674,
    "longitude": 5.7017388,
    "images": [
      {
        "path": "lac_monteynard.jpg"
      }
    ],
    "description": "Des eaux turquoises et un vent particulièrement fort font de ce lac de montagne une destination privilégié pour tous les amateurs des sports de glisse aquatique.",
    "links": [
      "http://www.lac-monteynard.com/"
    ]
  },
  {
    "label": "Marais Poitevin",
    "latitude": 46.33333,
    "longitude": -1,
    "images": [
      {
        "path": "poitevin.jpg",
        "source": "viinz"
      },
      {
        "path": "poitevin1.jpg"
      }
    ],
    "description": "Un univers marécageux de 96 000 hectares qui n'est pas sans rappeler la Louisiane.",
    "links": [
      "https://www.marais-poitevin.com/"
    ]
  },
  {
    "label": "Plateau des milles étangs",
    "latitude": 46.8656,
    "longitude": 4.18988,
    "images": [
      {
        "path": "milles_etang.jpg",
        "source": "parcballonsvosges"
      }
    ],
    "description": "Ses nombreux lacs lui ont donné le surnom de 'Petite finlande'.",
    "links": [
      "https://www.les1000etangs.com/"
    ]
  },
  {
    "label": "Gorges de la Dordogne",
    "latitude": 45.1429198,
    "longitude": 0.6321258,
    "images": [
      {
        "path": "dordogne.jpg"
      },
      {
        "path": "dordogne1.jpg"
      }
    ],
    "description": "Ces paysages verdoyants entourant la Dordogne donne un semblant de paysages tropicaux à cette région française. La faune et la flore n'ont évidemment rien à voir...",
    "links": [
      "https://www.tourismecorreze.com/fr/tourisme_detail/les_gorges_de_la_dordogne.html"
    ]
  },
  {
    "label": "Lac de Gaube",
    "latitude": 42.8314346,
    "longitude": -0.1396429,
    "images": [
      {
        "path": "lac_gaube.jpg"
      }
    ],
    "description": "Un magnifique lac niché au coeur des Pyrénées qui rappelle les grands paysages du Canada et des pays scandinaves.",
    "links": [
      "https://www.tourisme-occitanie.com/montagne/vacances-dans-les-pyrenees"
    ]
  },
  {
    "label": "Strasbourg",
    "latitude": 48.584614,
    "longitude": 7.7507127,
    "images": [
      {
        "path": "strasbourg.jpg"
      },
      {
        "path": "strasbourg1.jpg"
      },
      {
        "path": "strasbourg2.jpg",
        "source": "pokaa.fr"
      }
    ],
    "description": "L'architecture alsacienne du coeur de Strasbourg vous rappellera les décors bavarois. Pendant les fêtes de fin d'année, l'esprit de Noël englobe la ville et Strasbourg devient la véritable capitale de Noël. La Laponie n'a qu'à bien se tenir !",
    "links": [
      "https://www.visitstrasbourg.fr/"
    ]
  },
  {
    "label": "Colmar",
    "latitude": 48.08333,
    "longitude": 7.36667,
    "images": [
      {
        "path": "colmar.jpg"
      },
      {
        "path": "colmar1.jpg"
      }
    ],
    "description": "Cette charmante petite ville présente une architecture pittoresque et des canaux qui lui ont donné le nom de petite Venise. On y retrouve une copie de la célèbre statue de la Liberté conçue par un colmarien, Auguste Bartholdi.",
    "links": [
      "https://www.tourisme-colmar.com/fr/"
    ]
  },
  {
    "label": "Annecy",
    "latitude": 45.9,
    "longitude": 6.11667,
    "images": [
      {
        "path": "annecy.jpg"
      }
    ],
    "description": "De nombreux canaux serpentent dans la ville médiévale d'Annecy, qui lui ont donné le nom de Venise des Alpes.",
    "links": [
      "https://www.lac-annecy.com/"
    ]
  },
  {
    "label": "Aigues-Mortes",
    "latitude": 43.57178083878112,
    "longitude": 4.202356647949204,
    "images": [
      {
        "path": "aigues_morte.jpg"
      }
    ],
    "description": "La cité d'Aigues-Mortes est une cité fortifiée de Camaargue. Les salins d'Aigues-Mortes, avec leur couleur rose caractéristique, rappelle le lac Hilier en Australie ou le lac Rose au sénégal.",
    "links": [
      "https://ot-aiguesmortes.com/"
    ]
  },
  {
    "label": "Orgues de Bort",
    "latitude": 45.4,
    "longitude": 2.5,
    "images": [
      {
        "path": "bort_orgues_siteofficiel.jpg",
        "source": "siteofficiel"
      },
      {
        "path": "bort_orgues_siteofficiel1.jpg",
        "source": "siteofficiel"
      }
    ],
    "description": "Une magnifique curiosité géologique au coeur de l'Auvergne.",
    "links": [
      "https://www.tourismecorreze.com/fr/tourisme_detail/les_orgues_de_bort.html"
    ]
  },
  {
    "label": "Canyon de Vacca",
    "latitude": 41.724223,
    "longitude": 9.2712855,
    "images": [
      {
        "path": "canyon_vacca_.JPG",
        "source": "expedicionsegan"
      },
      {
        "path": "canyon_vacca_aqacanyon.jpg",
        "source": "aqacanyon"
      }
    ],
    "description": "Un magnifique canyon dans les montagnes Corse.",
    "links": [
      "https://www.visit-corsica.com/"
    ]
  },
  {
    "label": "Calanques de Marseille",
    "latitude": 43.2961743,
    "longitude": 5.3699525,
    "images": [
      {
        "path": "calanque_marseille.jpg"
      },
      {
        "path": "calanque_marseille1.jpg"
      },
      {
        "path": "calanque_marseille2.jpg"
      }
    ],
    "description": "Connues dans le monde entier, les calanques de Marseille offrent des paysages somptueux et une mer d'un bleu si ... bleu !",
    "links": [
      "https://www.marseilletourisme.fr/fr/que-voir/calanques/"
    ]
  },
  {
    "label": "Donon",
    "latitude": 48.5126166,
    "longitude": 7.1644661,
    "images": [
      {
        "path": "donon_wikipedia.jpg",
        "source": "Wikipédia"
      }
    ],
    "description": "Un temple de style grec dans les Vosges ? C'est le Donon, un monument surprenant à plus de 1000m d'altitude. Un lieu chargé d'histoire, habité dès l'ère romaine.",
    "links": [
      "https://www.visit.alsace/215000338-le-donon-montagne-sacree/"
    ]
  },
  {
    "label": "Lac Capitello",
    "latitude": 42.216131,
    "longitude": 9.0579488,
    "images": [
      {
        "path": "lac_capitello.jpg",
        "source": "Voyage Michelin"
      },
      {
        "path": "lac_capitello1.jpg",
        "source": "antoineontherock"
      }
    ],
    "description": "Le lac de Capitello en Corse est un des magnifiques lacs de montagnes de France. Bien qu'en Corse, il est gelé plus de 8 mois par an !",
    "links": [
      ""
    ]
  },
  {
    "label": "Ocres de Rustrel",
    "latitude": 43.92571,
    "longitude": 5.48554,
    "images": [
      {
        "path": "ocre_rustrel.jpg"
      },
      {
        "path": "ocre_rustrel1.jpg"
      }
    ],
    "description": "Les ocres de Rustrel, qu'on appelle également le colorado provençal, est un ancien site industriel exploité pour ses ocres qui lui donne sa couleur caractéristique.",
    "links": [
      ""
    ]
  },
  {
    "label": "Vosges",
    "latitude": 48.163786,
    "longitude": 6.3820712,
    "images": [
      {
        "path": "vosges.jpg"
      },
      {
        "path": "vosges1.jpg"
      },
      {
        "path": "vosges2.jpg"
      }
    ],
    "description": "Les paysages légèrement montagneux et arborés des Vosges ne sont pas sans rappeler les décors de la Virginie. À visiter en automne de préférence pour admirer les belles mosaïques de couleurs.",
    "links": [
      "https://www.tourisme.vosges.fr/"
    ]
  },
  {
    "label": "Mont Blanc",
    "latitude": 46.0926274,
    "longitude": 5.0775307,
    "images": [
      {
        "path": "montblanc.jpg"
      },
      {
        "path": "montblanc1.jpg"
      }
    ],
    "description": "Si l'on parle de haute montagne, on ne peut évidemment pas passer à côté du Mont Blanc, le plus haut sommet d'Europe. Un grand classique !",
    "links": [
      "https://www.chamonix.com/le-mont-blanc,47-69352,fr.html"
    ]
  },
  {
    "label": "Archipel des Glénan",
    "latitude": 47.7060188,
    "longitude": -3.9950714,
    "images": [
      {
        "path": "archipel_glenan.jpg"
      },
      {
        "path": "archipel_glenan2.jpg"
      }
    ],
    "description": "Un archipel dignes des plus belles îles du montagne, et en Bretagne !",
    "links": [
      "https://www.tourismebretagne.com/destinations/les-10-destinations/quimper-cornouaille/larchipel-des-glenan/"
    ]
  },
  {
    "label": "Orgues d'Ille sur Têt",
    "latitude": 42.6866075,
    "longitude": 2.6210651,
    "images": [
      {
        "path": "orgues_ille_sur_tet.jpg",
        "source": "travelguide.michelin.com"
      },
      {
        "path": "orgues_ille_sur_tet1.jpg",
        "source": "Flickr"
      }
    ],
    "description": "",
    "links": [
      "https://www.tourisme-pyreneesorientales.com/orgues-dille-sur-tet"
    ]
  },
  {
    "label": "Pays cathare",
    "latitude": 43.0542733,
    "longitude": 2.5124715,
    "images": [
      {
        "path": "pays_cathare.jpg"
      },
      {
        "path": "pays_cathare1.jpg"
      }
    ],
    "description": "",
    "links": [
      "https://www.payscathare.org"
    ]
  },
  {
    "label": "Bonifacio",
    "latitude": 41.3878259,
    "longitude": 9.1606179,
    "images": [
      {
        "path": "bonifacio.jpg"
      },
      {
        "path": "bonifacio1.jpg"
      }
    ],
    "description": "Située à la pointe Sud de la Corse, la cité médiévale de Bonifacio est réputée pour ses falaises et sa nature préservée. De magnifiques panoramas sont à découvrir !",
    "links": [
      "https://www.bonifacio.fr"
    ]
  },
  {
    "label": "Désert des Agriates",
    "latitude": 42.6963,
    "longitude": 9.1647,
    "images": [
      {
        "path": "desert_agriate.jpg"
      },
      {
        "path": "desert_agriate2.jpg"
      }
    ],
    "description": "",
    "links": [
      "https://www.visit-corsica.com/"
    ]
  }
]